# From : https://www.minnelusa.com/sampledata.php
#=========================================================================
#       www.Minnelusa.com                   email: info@Minnelusa.com
#       Minnelusa Digital Well Log Data
#=========================================================================
~Version Information
 VERS.   2.0                      :CWLS log ASCII Standard - Version 2.0
 WRAP.   NO                       :One Line per Depth Step
 CREA.   02-08-2006               :LAS File Creation Date (MM-DD-YYYY)
~WELL Information Block
#MNEM   .UNIT              Data                 Description of
#----   -----  ------------------------------   -----------------
 STRT   .F                          8420.0000  :START DEPTH
 STOP   .F                          8714.0000  :STOP DEPTH
 STEP   .F                             1.0000  :STEP
 NULL   .                             -999.25  :NULL VALUE
 COMP   .      Barrett Resources               :COMPANY
 WELL   .      #31-6 Duvall                    :WELL
 LOC    .      NW NE 06-49N-69W                :LOCATION
 CNTY   .      Campbell                        :COUNTY
 FLD    .                                      :FIELD
 STAT   .      Wyoming                         :STATE
 CTRY   .      U.S.A.                          :COUNTRY
 DATE   .      01/00                           :COMPLETION DATE (MM/YY)
 API    .      49-005-37851-0000               :API NUMBER
 SRVC   .                                      :SERVICE COMPANY
~Curve Information Block
#MNEM   .UNIT                                   Curve Description
#----   -----                                   ---------------------
 DEPT   .F                                     :1 DEPTH
 DT     .US/F                                  :2 SONIC DELTA-T
 RESD   .OHMM                                  :3 DEEP RESISTIVITY
 SP     .MV                                    :4 SP CURVE
 GR     .GAPI                                  :5 GAMMA RAY
~Parameter Information Block
#MNEM   .UNIT                   Value           Information
#----   -----  ------------------------------   --------------------------
 BHT    .DEGF                        160.0000  :BOTTOM HOLE TEMPERATURE
 RMF    .OHMM                          0.1320  :MUD FILTRATE RESISTIVITY
 RMFT   .DEGF                         66.0000  :MEASURE TEMPERATURE OF RMF
 EKB    .F                          4323.0000  :ELEVATION KELLY BUSHING
 SECT   .                                  06  :SECTION
 TOWN   .                                 49N  :TOWNSHIP
 RANG   .                                 69W  :RANGE
~A  Depth     Delta-T     Resist.          SP          GR
# ...
  8554.0000     54.4000    129.0000     55.3000     31.0000
  8555.0000     61.5000     26.0000     55.3000     36.0000
  8556.0000     65.4000     11.5000     55.3000     36.0000
  8557.0000     68.1000      8.5000     55.3000     28.0000
  8558.0000     71.8000      6.7000     55.3000     25.0000
  8559.0000     69.5000      6.3000     55.3000     25.0000
  8560.0000     65.4000      8.8000     55.3000     25.0000
  8561.0000     67.8000     10.2000     55.3000     30.0000
  8562.0000     71.7000      8.6000     55.3000     34.0000
  8563.0000     71.0000      7.7000     55.1000     36.0000
  8564.0000     70.4000      7.7000     54.9000     38.0000
  8565.0000     71.5000      7.7000     54.9000     37.0000
  8566.0000     72.0000      7.7000     54.5000     35.0000
  8567.0000     70.0000      7.7000     54.5000     35.0000
  8568.0000     71.9000      7.7000     54.5000     36.0000
  8569.0000     74.2000      9.1000     54.3000     37.0000
  8570.0000     72.6000      7.1000     54.3000     36.0000
  8571.0000     71.8000      6.9000     54.3000     33.0000
  8572.0000     72.3000      7.2000     54.1000     32.0000
  8573.0000     70.6000      7.2000     53.9000     31.0000
  8574.0000     65.9000      7.3000     53.7000     31.0000
  8575.0000     63.6000      9.3000     53.5000     31.0000
  8576.0000     64.5000     11.6000     53.3000     31.0000
  8577.0000     68.1000     12.4000     52.9000     33.0000
  8578.0000     69.4000      7.0000     52.5000     40.0000
  8579.0000     70.0000      5.1000     52.1000     43.0000
  8580.0000     70.0000      4.7000     51.3000     41.0000
  8581.0000     69.8000      4.6000     50.9000     38.0000
  8582.0000     69.0000      5.7000     50.1000     37.0000
  8583.0000     68.2000      7.0000     49.1000     39.0000
  8584.0000     68.2000      7.1000     48.5000     39.0000
  8585.0000     68.2000      7.1000     47.7000     36.0000
  8586.0000     66.9000      6.5000     46.5000     34.0000
  8587.0000     65.1000      6.7000     45.5000     32.0000
  8588.0000     64.5000      8.8000     44.7000     29.0000
  8589.0000     65.0000      9.4000     44.1000     25.0000
  8590.0000     63.8000      9.2000     43.1000     24.0000
  8591.0000     60.3000      9.1000     42.5000     24.0000
  8592.0000     60.2000     13.8000     41.7000     24.0000
  8593.0000     57.5000     15.3000     40.9000     26.0000
  8594.0000     54.5000     21.0000     39.7000     52.0000
  8595.0000     51.8000     36.0000     39.3000     47.0000
  8596.0000     47.4000     45.0000     38.7000     33.0000
  8597.0000     45.3000     57.0000     38.5000     34.0000
  8598.0000     46.9000     88.0000     38.3000     40.0000
  8599.0000     48.7000    134.0000     38.3000     42.0000
  8600.0000     48.6000     89.0000     38.9000     48.0000
  8601.0000     48.8000     68.0000     39.3000     64.0000
  8602.0000     49.4000     54.0000     39.7000     56.0000
  8603.0000     46.5000     44.0000     39.7000     45.0000
  8604.0000     46.3000     59.0000     39.7000     40.0000
  8605.0000     47.0000    103.0000     39.7000     38.0000
  8606.0000     46.7000    114.0000     39.3000     40.0000
  8607.0000     46.7000     92.0000     38.9000     56.0000
  8608.0000     47.0000     94.0000     38.7000     94.0000
  8609.0000     47.9000    107.0000     38.3000    130.0000
  8610.0000     48.7000    113.0000     37.9000    192.0000
  8611.0000     49.9000    107.0000     37.3000    109.0000
  8612.0000     51.0000     93.0000     36.9000     60.0000
  8613.0000     51.3000     92.0000     36.5000     42.0000
  8614.0000     51.3000     63.0000     35.5000     39.0000
  8615.0000     51.3000     58.0000     34.7000     44.0000
  8616.0000     52.0000     54.0000     33.9000     42.0000
  8617.0000     52.6000     44.0000     33.5000     45.0000
  8618.0000     51.7000     44.0000     32.9000     50.0000
  8619.0000     50.0000     35.0000     32.3000     49.0000
  8620.0000     49.9000     34.0000     32.1000     61.0000
  8621.0000     48.6000     40.0000     32.1000     60.0000
  8622.0000     46.8000     50.0000     32.1000     56.0000
  8623.0000     46.5000     84.0000     32.1000     61.0000
  8624.0000     47.3000    100.0000     32.1000     67.0000
  8625.0000     47.9000    112.0000     32.1000     54.0000
  8626.0000     47.4000    103.0000     32.1000     42.0000
  8627.0000     47.2000     98.0000     32.1000     34.0000
  8628.0000     49.9000    115.0000     32.1000     33.0000
  8629.0000     50.8000    217.0000     32.1000     34.0000
  8630.0000     51.0000    422.0000     32.1000     25.0000
  8631.0000     51.0000   1267.0000     32.1000     22.0000
  8632.0000     51.0000  41821.0000     32.1000     20.0000
  8633.0000     51.0000  45978.0000     32.1000     19.0000
  8634.0000     51.0000  44690.0000     32.1000     26.0000
  8635.0000     50.2000  36626.0000     32.1000     40.0000
  8636.0000     47.5000   1576.0000     31.7000     34.0000
  8637.0000     45.9000    936.0000     31.1000     27.0000
  8638.0000     45.7000    820.0000     30.3000     38.0000
  8639.0000     46.3000    672.0000     29.7000     39.0000
  8640.0000     47.0000    418.0000     29.1000     41.0000
  8641.0000     47.1000    232.0000     28.7000     44.0000
  8642.0000     47.8000    153.0000     28.3000     49.0000
  8643.0000     48.4000    150.0000     28.1000     53.0000
  8644.0000     47.4000    133.0000     28.1000     35.0000
  8645.0000     46.9000    146.0000     28.1000     34.0000
  8646.0000     49.6000    447.0000     28.1000     28.0000
  8647.0000     51.0000    501.0000     28.1000     20.0000
  8648.0000     51.4000  10485.0000     28.1000     16.0000
  8649.0000     49.9000  38768.0000     28.5000     18.0000
  8650.0000     48.9000  47304.0000     29.7000     19.0000
  8651.0000     49.3000  48668.0000   -163.1000     18.0000
  8652.0000     49.9000  49131.0000   -163.3000     16.0000
  8653.0000     49.9000  49131.0000   -163.5000     16.0000
  8654.0000     48.9000  49131.0000   -163.5000     23.0000
  8655.0000     47.1000  45115.0000   -163.5000     30.0000
  8656.0000     47.0000  34602.0000   -163.5000     31.0000
  8657.0000     46.7000   1069.0000   -163.5000     29.0000
  8658.0000     45.7000    753.0000   -163.5000     30.0000
  8659.0000     45.1000    525.0000   -163.5000     79.0000
  8660.0000     58.9000    324.0000   -163.7000    126.0000
  8661.0000     63.6000     48.0000   -163.7000     63.0000
  8662.0000     48.7000     41.0000   -163.7000     49.0000
  8663.0000     45.2000    659.0000   -163.7000     41.0000
  8664.0000     44.9000    910.0000   -163.7000     38.0000
  8665.0000     45.4000    991.0000   -163.7000     36.0000
  8666.0000     45.7000   1000.0000   -163.7000     36.0000
  8667.0000     45.3000    945.0000   -163.9000     36.0000
  8668.0000     45.7000    945.0000   -163.9000     40.0000
  8669.0000     44.5000    876.0000   -164.1000     40.0000
  8670.0000     44.1000    753.0000   -164.1000     41.0000
  8671.0000     45.5000    738.0000   -164.1000     45.0000
  8672.0000     48.2000    820.0000   -164.1000     46.0000
  8673.0000     52.2000    366.0000   -164.1000     44.0000
  8674.0000     54.7000    260.0000   -164.1000     42.0000
  8675.0000     52.8000    196.0000   -164.1000      0.0000
  8676.0000     52.2000    194.0000   -164.1000      0.0000
  8677.0000     52.8000    200.0000   -164.1000      0.0000
  8678.0000     51.2000    167.0000   -164.1000      0.0000
  8679.0000     50.5000    165.0000   -164.3000      0.0000
  8680.0000     50.6000    220.0000   -164.5000      0.0000
  8681.0000     48.0000    284.0000   -164.5000      0.0000
  8682.0000     47.1000    438.0000   -164.5000      0.0000
  8683.0000     53.4000    561.0000   -164.5000      0.0000
  8684.0000     57.7000    566.0000   -164.5000      0.0000
  8685.0000     60.6000    253.0000   -164.5000      0.0000
  8686.0000     62.7000    121.0000   -164.5000      0.0000
  8687.0000     63.1000     79.0000   -164.5000      0.0000
