# From : https://www.minnelusa.com/sampledata.php
#=========================================================================
#       www.Minnelusa.com                   email: info@Minnelusa.com
#       Minnelusa Digital Well Log Data
#=========================================================================
~Version Information
 VERS.   2.0                      :CWLS log ASCII Standard - Version 2.0
 WRAP.   NO                       :One Line per Depth Step
 CREA.   02-08-2006               :LAS File Creation Date (MM-DD-YYYY)
~WELL Information Block
#MNEM   .UNIT              Data                 Description of
#----   -----  ------------------------------   -----------------
 STRT   .F                          8420.0000  :START DEPTH
 STOP   .F                          8714.0000  :STOP DEPTH
 STEP   .F                             1.0000  :STEP
 NULL   .                             -999.25  :NULL VALUE
 COMP   .      Barrett Resources               :COMPANY
 WELL   .      #31-6 Duvall                    :WELL
 LOC    .      NW NE 06-49N-69W                :LOCATION
 CNTY   .      Campbell                        :COUNTY
 FLD    .                                      :FIELD
 STAT   .      Wyoming                         :STATE
 CTRY   .      U.S.A.                          :COUNTRY
 DATE   .      01/00                           :COMPLETION DATE (MM/YY)
 API    .      49-005-37851-0000               :API NUMBER
 SRVC   .                                      :SERVICE COMPANY
~Curve Information Block
#MNEM   .UNIT                                   Curve Description
#----   -----                                   ---------------------
 DEPT   .F                                     :1 DEPTH
 DT     .US/F                                  :2 SONIC DELTA-T
 RESD   .OHMM                                  :3 DEEP RESISTIVITY
 SP     .MV                                    :4 SP CURVE
 GR     .GAPI                                  :5 GAMMA RAY
~Parameter Information Block
#MNEM   .UNIT                   Value           Information
#----   -----  ------------------------------   --------------------------
 BHT    .DEGF                        160.0000  :BOTTOM HOLE TEMPERATURE
 RMF    .OHMM                          0.1320  :MUD FILTRATE RESISTIVITY
 RMFT   .DEGF                         66.0000  :MEASURE TEMPERATURE OF RMF
 EKB    .F                          4323.0000  :ELEVATION KELLY BUSHING
 SECT   .                                  06  :SECTION
 TOWN   .                                 49N  :TOWNSHIP
 RANG   .                                 69W  :RANGE
~A  Depth     Delta-T     Resist.          SP          GR
  8420.0000     62.7000      8.4000     44.9000    110.0000
  8421.0000     63.1000      8.4000     44.9000    122.0000
  8422.0000     64.5000      8.1000     44.9000    128.0000
  8423.0000     64.3000      7.9000     44.7000    118.0000
  8424.0000     61.2000      8.0000     44.7000     95.0000
  8425.0000     60.2000      9.6000     44.5000     91.0000
  8426.0000     59.8000     11.9000     44.5000     90.0000
  8427.0000     59.5000     13.4000     44.3000     97.0000
  8428.0000     59.6000     13.9000     43.9000    100.0000
  8429.0000     59.9000     13.8000     43.7000    106.0000
  8430.0000     59.8000     11.7000     43.5000    118.0000
  8431.0000     61.1000     10.4000     43.3000    128.0000
  8432.0000     64.0000      8.7000     43.1000    136.0000
  8433.0000     66.7000      7.7000     43.1000    149.0000
  8434.0000     67.9000      7.7000     43.1000    152.0000
  8435.0000     65.4000      7.7000     43.1000     56.0000
  8436.0000     55.6000     15.9000     44.1000     29.0000
  8437.0000     51.0000    226.0000     45.7000     20.0000
  8438.0000     50.6000    410.0000     47.3000     26.0000
  8439.0000     53.7000    289.0000     49.3000     22.0000
  8440.0000     57.1000     60.0000     51.3000     19.0000
  8441.0000     56.0000     54.0000     52.7000     37.0000
  8442.0000     53.9000     53.0000     54.1000     42.0000
  8443.0000     53.8000     15.5000     55.1000     31.0000
  8444.0000     60.8000      2.8000     55.7000     24.0000
  8445.0000     62.2000      2.6000     56.3000     22.0000
  8446.0000     60.0000      3.9000     56.7000     21.0000
  8447.0000     58.0000      5.4000     56.9000     22.0000
  8448.0000     57.8000      5.4000     57.1000     23.0000
  8449.0000     57.2000      5.6000     57.1000     26.0000
  8450.0000     54.0000     26.0000     57.1000     31.0000
  8451.0000     52.4000     39.0000     56.5000     38.0000
  8452.0000     51.6000     59.0000     55.5000     39.0000
  8453.0000     51.0000     63.0000     54.9000     30.0000
  8454.0000     50.8000     71.0000     54.3000     32.0000
  8455.0000     51.0000     71.0000     53.1000     28.0000
  8456.0000     51.8000     18.3000     52.1000     28.0000
  8457.0000     53.6000      6.1000     51.1000     27.0000
  8458.0000     53.8000      5.3000     49.5000     21.0000
  8459.0000     50.0000     25.0000     47.9000     19.0000
  8460.0000     48.6000     68.0000     46.9000     61.0000
  8461.0000     52.7000     68.0000     45.3000    112.0000
  8462.0000     60.8000     12.3000     44.3000    136.0000
  8463.0000     62.7000      9.0000     42.9000    135.0000
  8464.0000     62.3000      6.7000     42.5000    132.0000
  8465.0000     62.3000      6.1000     41.9000    132.0000
  8466.0000     63.1000      5.9000     41.7000    134.0000
  8467.0000     63.4000      5.9000     41.5000    129.0000
  8468.0000     63.4000      5.9000     41.3000    129.0000
  8469.0000     63.5000      5.6000     41.1000    131.0000
  8470.0000     64.2000      5.4000     40.9000    130.0000
  8471.0000     64.7000      5.2000     40.7000    129.0000
  8472.0000     64.7000      5.1000     40.3000    130.0000
  8473.0000     64.6000      5.1000     40.1000    134.0000
  8474.0000     63.6000      5.4000     39.7000    133.0000
  8475.0000     63.2000      6.4000     39.5000    124.0000
  8476.0000     63.7000      6.9000     39.3000    130.0000
  8477.0000     63.9000      7.0000     39.1000    132.0000
  8478.0000     63.5000      7.4000     38.7000    121.0000
  8479.0000     64.3000      7.6000     38.5000    129.0000
  8480.0000     66.5000      6.7000     38.3000    139.0000
  8481.0000     66.7000      6.4000     37.7000    148.0000
  8482.0000     63.6000      6.7000     37.3000    130.0000
  8483.0000     60.8000      8.6000     36.7000    116.0000
  8484.0000     61.2000      9.4000     36.3000    119.0000
  8485.0000     63.9000      9.4000     35.9000    130.0000
  8486.0000     64.8000      8.4000     35.5000    141.0000
  8487.0000     65.6000      7.3000     34.7000    149.0000
  8488.0000     66.2000      6.7000     34.3000    148.0000
  8489.0000     65.8000      6.1000     33.7000    141.0000
  8490.0000     66.3000      6.2000     33.1000    141.0000
  8491.0000     68.0000      6.2000     32.5000    150.0000
  8492.0000     68.2000      5.7000     32.1000    150.0000
  8493.0000     68.4000      5.4000     31.5000    148.0000
  8494.0000     70.6000      5.2000     30.9000    148.0000
  8495.0000     71.5000      4.5000     30.7000    149.0000
  8496.0000     71.5000      4.1000     30.3000    149.0000
  8497.0000     70.0000      4.0000     30.1000    144.0000
  8498.0000     67.4000      4.3000     30.1000    135.0000
  8499.0000     64.9000      5.2000     29.9000    120.0000
  8500.0000     62.9000      6.1000     29.9000    107.0000
  8501.0000     67.5000      6.8000     29.9000    104.0000
  8502.0000     69.0000      7.0000     29.9000    109.0000
  8503.0000     67.6000      5.2000     29.9000    116.0000
  8504.0000     63.8000      5.0000     30.3000    120.0000
  8505.0000     63.1000      6.3000     30.7000    116.0000
  8506.0000     64.5000      7.2000     31.5000    114.0000
  8507.0000     66.0000      6.8000     32.1000    113.0000
  8508.0000     65.6000      6.2000     32.7000    116.0000
  8509.0000     63.6000      7.1000     33.5000    118.0000
  8510.0000     62.7000      8.4000     34.1000    112.0000
  8511.0000     61.9000     10.2000     34.7000    106.0000
  8512.0000     61.6000     11.0000     35.5000    102.0000
  8513.0000     61.7000     11.0000     36.3000    100.0000
  8514.0000     61.5000     10.4000     36.7000    100.0000
  8515.0000     60.9000     10.6000     37.3000     99.0000
  8516.0000     60.9000     11.7000     37.9000     94.0000
  8517.0000     61.5000     11.9000     38.5000     93.0000
  8518.0000     61.6000     11.6000     39.3000     92.0000
  8519.0000     61.9000     11.6000     39.9000     94.0000
  8520.0000     61.9000     11.6000     40.3000     85.0000
  8521.0000     61.1000     12.0000     40.9000     84.0000
  8522.0000     61.3000     11.4000     41.3000     88.0000
  8523.0000     61.6000     11.0000     41.7000     87.0000
  8524.0000     60.7000     11.1000     41.9000     77.0000
  8525.0000     60.3000     12.7000     42.1000     75.0000
  8526.0000     60.7000     13.5000     42.1000     80.0000
  8527.0000     61.2000     13.7000     42.1000     84.0000
  8528.0000     61.3000     13.0000     42.1000     86.0000
  8529.0000     62.1000     12.3000     41.7000     89.0000
  8530.0000     62.7000     11.2000     41.1000     94.0000
  8531.0000     62.7000     10.3000     40.7000     98.0000
  8532.0000     63.2000      9.4000     40.1000    102.0000
  8533.0000     64.1000      8.8000     39.7000    106.0000
  8534.0000     64.5000      8.0000     39.3000    116.0000
  8535.0000     64.7000      7.7000     39.1000    118.0000
  8536.0000     64.8000      7.7000     38.9000    114.0000
  8537.0000     64.3000      7.9000     38.9000    110.0000
  8538.0000     63.5000      8.6000     38.9000     87.0000
  8539.0000     61.6000     10.5000     38.9000     67.0000
  8540.0000     55.5000     19.0000     39.3000     53.0000
  8541.0000     48.7000    501.0000     40.5000     49.0000
  8542.0000     47.1000    599.0000     41.9000     42.0000
  8543.0000     46.9000    550.0000     43.3000     42.0000
  8544.0000     47.6000   1799.0000     44.5000     30.0000
  8545.0000     49.2000  18690.0000     46.1000     21.0000
  8546.0000     50.0000  26538.0000     47.5000     25.0000
  8547.0000     49.4000   8352.0000     48.9000     29.0000
  8548.0000     48.2000    789.0000     50.7000     29.0000
  8549.0000     47.4000    447.0000     52.3000     26.0000
  8550.0000     47.1000    491.0000     53.1000     26.0000
  8551.0000     48.7000    918.0000     55.3000     30.0000
  8552.0000     49.3000   1142.0000     55.3000     31.0000
  8553.0000     51.0000   1131.0000     55.3000     25.0000
